[
    {
      "name": "Euronics",
      "address": "Via Onorevole Giuseppe Saragat, 67100 L'Aquila (AQ)",
      "phone": "0862 080261",
      "website": "https://www.euronics.it/",
      "offersRepairs": false,
      "id" : 1,
      "latitude": 42.34960052290716,
      "longitude": 13.357207535220324
    },
    {
      "name": "Mondo Informatico",
      "address": "Viale Croce Rossa, 67100 L'Aquila (AQ)",
      "phone": "3939904632",
      "website": "https://www.facebook.com/mondoinformatico.laquila/?locale2=it_IT&_rdr",
      "offersRepairs": true,
      "id" : 2,
      "latitude": 42.35699279267262,
      "longitude": 13.401507505877879
    },
    {
      "name": "Trony",
      "address": "Via Francesco Savini, 67100 L'Aquila (AQ)",
      "phone": "0862 401652",
      "website": "https://www.trony.it/",
      "offersRepairs": false,
      "id" : 3,
      "latitude": 42.35342934868272,
      "longitude": 13.415304950583462
    },
    {
      "name": "Planet Computer Superstore",
      "address": "Viale S. Giovanni Bosco, 67100 L'Aquila (AQ)",
      "phone": "0862 401652",
      "website": "https://www.facebook.com/planetcomputersuperstore#",
      "offersRepairs": true,
      "id" : 4,
      "latitude": 42.354669858725316,
      "longitude": 13.395485779617792
    },
    {
      "name": "Mediaworld",
      "address": "Centro comm. L'Aquilone - Loc, Via Campo di Pile, 67100 L'Aquila AQ",
      "phone": "0294 751717",
      "website": "https://www.mediaworld.it/",
      "offersRepairs": false,
      "id" : 5,
      "latitude": 42.34865884173273,
      "longitude": 13.34906453202433
    },
    {
      "name": "Chiocciolandia S. C. S. di Arianna Giuliani",
      "address": "Via Alessandro Manzoni, 67100 L'Aquila AQ",
      "phone": "0862 362813",
      "website": "https://www.chiocciolandia.it/",
      "offersRepairs": true,
      "id" : 6,
      "latitude": 42.3708103252934,
      "longitude": 13.360368620431373
    },
    {
      "name": "Mr. Robot",
      "address": "Strada Statale 17, n34/M, 67100 L'Aquila AQ",
      "phone": "3456025907",
      "website": "https://mrrobotriparazioni.it/",
      "offersRepairs": true,
      "id" : 7,
      "latitude": 42.359171946254826,
      "longitude": 13.370506013318028
    },
    {
      "name": "Digital",
      "address": "c/o Galleria Meridiana, Via Rocco Carabba, snc, 67100 L'Aquila AQ",
      "phone": "3401959123",
      "website": "https://www.facebook.com/digitalsnc/?locale=it_IT",
      "offersRepairs": true,
      "id" : 8,
      "latitude": 42.35513583886993,
      "longitude": 13.385893928902037
    },
    {
      "name": "ADP Computer Store",
      "address": "Centro Commerciale Amiternum, Via Enrico Fermi, 67100 L'Aquila AQ",
      "phone": "0862311583",
      "website": "https://www.facebook.com/adpstore/?locale=it_IT",
      "offersRepairs": true,
      "id" : 9,
      "latitude": 42.373961297998335,
      "longitude": 13.351690700539315
    },
    {
      "name": "Centroriparazioni",
      "address": "Agor√†, SS80, 67100 L'Aquila AQ",
      "phone": "0862 312284",
      "website": "https://www.centroriparazioni.com/",
      "offersRepairs": true,
      "id" : 10,
      "latitude": 42.36976890572746,
      "longitude": 13.356386653980337
    },
    {
      "name": "SOS 23",
      "address": "Corso Vittorio Emanuele, 67100 L'Aquila AQ",
      "phone": "3937232323",
      "website": "https://www.facebook.com/S.O.Sventi3/?locale=it_IT",
      "offersRepairs": true,
      "id" : 11,
      "latitude": 42.35239177735207,
      "longitude": 13.40064227699508
    },
    {
      "name": "Dottor Tech",
      "address": "Via Colombo Andreassi, 67100 L'Aquila AQ",
      "phone": "3509045866",
      "website": "https://www.dottortech.it/home",
      "offersRepairs": true,
      "id" : 12,
      "latitude": 42.364082610217906,
      "longitude": 13.38484463238984
    }
  ]
